{
  "data": {
    "重庆红楼医院雅安解放军第三十七医院": {
      "shareholder": [],
      "name": "重庆红楼医院雅安解放军第三十七医院",
      "comments": {},
      "note": "",
      "phone": [],
      "putian": {},
      "city": "重庆",
      "location": "",
      "created": 1463531060,
      "news": {},
      "type": "",
      "id": "c9da5e51-a8c3-4394-b1a1-4c147013e9dc",
      "baiduad": {},
      "USID": "",
      "url": [],
      "principal": "",
      "address": "",
      "dataversion": "draft1",
      "province": "重庆"
    },
    "重庆万州美妇产医院": {
      "shareholder": [],
      "name": "重庆万州美妇产医院",
      "comments": {},
      "note": "",
      "phone": [],
      "putian": {},
      "city": "重庆",
      "location": "",
      "created": 1463531060,
      "news": {},
      "type": "",
      "id": "c8e62c5b-4796-45d9-ad21-de07d5066422",
      "baiduad": {},
      "USID": "",
      "url": [],
      "principal": "",
      "address": "",
      "dataversion": "draft1",
      "province": "重庆"
    },
    "涪陵博生和美妇产医院": {
      "shareholder": [],
      "name": "涪陵博生和美妇产医院",
      "comments": {},
      "note": "",
      "phone": [],
      "putian": {},
      "city": "重庆",
      "location": "",
      "created": 1463531060,
      "news": {},
      "type": "",
      "id": "4039c580-0453-4494-b265-a37679ebe41d",
      "baiduad": {},
      "USID": "",
      "url": [],
      "principal": "",
      "address": "",
      "dataversion": "draft1",
      "province": "重庆"
    },
    "重庆生殖健康医院": {
      "shareholder": [],
      "name": "重庆生殖健康医院",
      "comments": {},
      "note": "",
      "phone": [],
      "putian": {},
      "city": "重庆",
      "location": "",
      "created": 1463531060,
      "news": {},
      "type": "",
      "id": "dacaa031-33d2-47b9-be9a-abbbeadfd737",
      "baiduad": {},
      "USID": "",
      "url": [],
      "principal": "",
      "address": "",
      "dataversion": "draft1",
      "province": "重庆"
    },
    "重庆爱德华医院": {
      "shareholder": [],
      "name": "重庆爱德华医院",
      "comments": {},
      "note": "",
      "phone": [],
      "putian": {},
      "city": "重庆",
      "location": "",
      "created": 1463531060,
      "news": {},
      "type": "",
      "id": "181a8127-1865-45c7-9d14-82e14de8ac3e",
      "baiduad": {},
      "USID": "",
      "url": [],
      "principal": "",
      "address": "",
      "dataversion": "draft1",
      "province": "重庆"
    },
    "解放军第324医院": {
      "shareholder": [],
      "name": "解放军第324医院",
      "comments": {},
      "note": "",
      "phone": [],
      "putian": {},
      "city": "重庆",
      "location": "",
      "created": 1463531060,
      "news": {},
      "type": "",
      "id": "c837070e-3029-41d9-a0fa-9d04381cf128",
      "baiduad": {},
      "USID": "",
      "url": [],
      "principal": "",
      "address": "",
      "dataversion": "draft1",
      "province": "重庆"
    },
    "重庆阳光医院": {
      "shareholder": [],
      "name": "重庆阳光医院",
      "comments": {},
      "note": "",
      "phone": [],
      "putian": {},
      "city": "重庆",
      "location": "",
      "created": 1463531060,
      "news": {},
      "type": "",
      "id": "5229d747-d30b-4a3c-822f-60143fdd2044",
      "baiduad": {},
      "USID": "",
      "url": [],
      "principal": "",
      "address": "",
      "dataversion": "draft1",
      "province": "重庆"
    },
    "重庆红楼医院": {
      "shareholder": [],
      "name": "重庆红楼医院",
      "comments": {},
      "note": "",
      "phone": [],
      "putian": {},
      "city": "重庆",
      "location": "",
      "created": 1463531060,
      "news": {},
      "type": "",
      "id": "73461fa6-00d2-4068-b438-8fe1c01cd52b",
      "baiduad": {},
      "USID": "",
      "url": [],
      "principal": "",
      "address": "",
      "dataversion": "draft1",
      "province": "重庆"
    },
    "重庆五洲女子医院": {
      "shareholder": [],
      "name": "重庆五洲女子医院",
      "comments": {},
      "note": "",
      "phone": [],
      "putian": {},
      "city": "重庆",
      "location": "",
      "created": 1463531060,
      "news": {},
      "type": "",
      "id": "5b141fcb-7eaa-41b1-a131-e2edc8ecdf0a",
      "baiduad": {},
      "USID": "",
      "url": [],
      "principal": "",
      "address": "",
      "dataversion": "draft1",
      "province": "重庆"
    },
    "万州阳光眼科医院": {
      "shareholder": [],
      "name": "万州阳光眼科医院",
      "comments": {},
      "note": "",
      "phone": [],
      "putian": {},
      "city": "重庆",
      "location": "",
      "created": 1463531060,
      "news": {},
      "type": "",
      "id": "e5f730a0-85fb-4e8c-8a9b-a2edb8b55dad",
      "baiduad": {},
      "USID": "",
      "url": [],
      "principal": "",
      "address": "",
      "dataversion": "draft1",
      "province": "重庆"
    },
    "重庆市爱德华医院": {
      "shareholder": [],
      "name": "重庆市爱德华医院",
      "comments": {},
      "note": "",
      "phone": [],
      "putian": {},
      "city": "重庆",
      "location": "",
      "created": 1463531060,
      "news": {},
      "type": "",
      "id": "8dfee5c6-60f3-4a6c-a1d6-923767b5c027",
      "baiduad": {},
      "USID": "",
      "url": [],
      "principal": "",
      "address": "",
      "dataversion": "draft1",
      "province": "重庆"
    },
    "重庆安琪儿妇产医院": {
      "shareholder": [],
      "name": "重庆安琪儿妇产医院",
      "comments": {},
      "note": "",
      "phone": [],
      "putian": {},
      "city": "重庆",
      "location": "",
      "created": 1463531060,
      "news": {},
      "type": "",
      "id": "23592ded-b7a6-4176-a318-231a477f001b",
      "baiduad": {},
      "USID": "",
      "url": [],
      "principal": "",
      "address": "",
      "dataversion": "draft1",
      "province": "重庆"
    },
    "重庆现代女子医院": {
      "shareholder": [],
      "name": "重庆现代女子医院",
      "comments": {},
      "note": "",
      "phone": [],
      "putian": {},
      "city": "重庆",
      "location": "",
      "created": 1463531060,
      "news": {},
      "type": "",
      "id": "b28c6069-b548-405b-8389-7620a13f02a8",
      "baiduad": {},
      "USID": "",
      "url": [],
      "principal": "",
      "address": "",
      "dataversion": "draft1",
      "province": "重庆"
    },
    "重庆华美美莱整形医院": {
      "shareholder": [],
      "name": "重庆华美美莱整形医院",
      "comments": {},
      "note": "",
      "phone": [],
      "putian": {},
      "city": "重庆",
      "location": "",
      "created": 1463531060,
      "news": {},
      "type": "",
      "id": "e548d409-2534-4184-9d3a-7ba8a43a937c",
      "baiduad": {},
      "USID": "",
      "url": [],
      "principal": "",
      "address": "",
      "dataversion": "draft1",
      "province": "重庆"
    },
    "重庆红十字会医院": {
      "shareholder": [],
      "name": "重庆红十字会医院",
      "comments": {},
      "note": "",
      "phone": [],
      "putian": {},
      "city": "重庆",
      "location": "",
      "created": 1463531060,
      "news": {},
      "type": "",
      "id": "027c432b-0f91-47ec-bf63-5fbe3474971f",
      "baiduad": {},
      "USID": "",
      "url": [],
      "principal": "",
      "address": "",
      "dataversion": "draft1",
      "province": "重庆"
    },
    "重庆华山中医乳腺病医院": {
      "shareholder": [],
      "name": "重庆华山中医乳腺病医院",
      "comments": {},
      "note": "",
      "phone": [],
      "putian": {},
      "city": "重庆",
      "location": "",
      "created": 1463531060,
      "news": {},
      "type": "",
      "id": "d25d71b7-38b9-48c4-8a0b-6c739debf669",
      "baiduad": {},
      "USID": "",
      "url": [],
      "principal": "",
      "address": "",
      "dataversion": "draft1",
      "province": "重庆"
    },
    "涪陵三峡医院": {
      "shareholder": [],
      "name": "涪陵三峡医院",
      "comments": {},
      "note": "",
      "phone": [],
      "putian": {},
      "city": "重庆",
      "location": "",
      "created": 1463531060,
      "news": {},
      "type": "",
      "id": "58eb5e1e-b944-4bba-b399-774cb45fc495",
      "baiduad": {},
      "USID": "",
      "url": [],
      "principal": "",
      "address": "",
      "dataversion": "draft1",
      "province": "重庆"
    },
    "重庆都市丽人医院": {
      "shareholder": [],
      "name": "重庆都市丽人医院",
      "comments": {},
      "note": "",
      "phone": [],
      "putian": {},
      "city": "重庆",
      "location": "",
      "created": 1463531060,
      "news": {},
      "type": "",
      "id": "7a14b713-244f-4a08-a75a-e33d71b7bacd",
      "baiduad": {},
      "USID": "",
      "url": [],
      "principal": "",
      "address": "",
      "dataversion": "draft1",
      "province": "重庆"
    },
    "重庆坤如玛丽医院": {
      "shareholder": [],
      "name": "重庆坤如玛丽医院",
      "comments": {},
      "note": "",
      "phone": [],
      "putian": {},
      "city": "重庆",
      "location": "",
      "created": 1463531060,
      "news": {},
      "type": "",
      "id": "90cc381b-1662-4896-a947-997c9ce78c13",
      "baiduad": {},
      "USID": "",
      "url": [],
      "principal": "",
      "address": "",
      "dataversion": "draft1",
      "province": "重庆"
    },
    "重庆万州博生医院": {
      "shareholder": [],
      "name": "重庆万州博生医院",
      "comments": {},
      "note": "",
      "phone": [],
      "putian": {},
      "city": "重庆",
      "location": "",
      "created": 1463531060,
      "news": {},
      "type": "",
      "id": "fc5a677c-d072-45d0-bee8-714eb74f3566",
      "baiduad": {},
      "USID": "",
      "url": [],
      "principal": "",
      "address": "",
      "dataversion": "draft1",
      "province": "重庆"
    }
  },
  "info": {
    "date": "2016年05月19日",
    "version": "draft1",
    "license": "https://github.com/open-power-workgroup/Hospital/blob/master/open_data_usage_license.md"
  }
}