{
  "data": {
    "惠州仁德妇科医院": {
      "shareholder": [],
      "name": "惠州仁德妇科医院",
      "comments": {},
      "note": "",
      "phone": [],
      "putian": {},
      "city": "惠州",
      "location": "",
      "created": 1463618411,
      "news": {},
      "type": "",
      "id": "f7c8eeb1-2804-4b76-ad17-45198b8893c8",
      "baiduad": {},
      "USID": "",
      "url": [],
      "principal": "",
      "address": "",
      "dataversion": "draft1",
      "province": "广东"
    },
    "深圳同仁妇科医院": {
      "shareholder": [],
      "name": "深圳同仁妇科医院",
      "comments": {},
      "note": "",
      "phone": [],
      "putian": {},
      "city": "深圳",
      "location": "",
      "created": 1463618411,
      "news": {},
      "type": "",
      "id": "eb967c92-3e5e-43a1-8461-d0b562f02c3e",
      "baiduad": {},
      "USID": "",
      "url": [],
      "principal": "",
      "address": "",
      "dataversion": "draft1",
      "province": "广东"
    },
    "中山阳光医院": {
      "shareholder": [],
      "name": "中山阳光医院",
      "comments": {},
      "note": "",
      "phone": [],
      "putian": {},
      "city": "中山",
      "location": "",
      "created": 1463618411,
      "news": {},
      "type": "",
      "id": "a335bcdb-3bb6-4da6-8023-985e805fd522",
      "baiduad": {},
      "USID": "",
      "url": [],
      "principal": "",
      "address": "",
      "dataversion": "draft1",
      "province": "广东"
    },
    "中山和平中医院": {
      "shareholder": [],
      "name": "中山和平中医院",
      "comments": {},
      "note": "",
      "phone": [],
      "putian": {},
      "city": "中山",
      "location": "",
      "created": 1463618411,
      "news": {},
      "type": "",
      "id": "14e9420e-0f19-4f7b-a0ca-fbd38d1cf158",
      "baiduad": {},
      "USID": "",
      "url": [],
      "principal": "",
      "address": "",
      "dataversion": "draft1",
      "province": "广东"
    },
    "深圳凤凰医院": {
      "shareholder": [],
      "name": "深圳凤凰医院",
      "comments": {},
      "note": "",
      "phone": [],
      "putian": {},
      "city": "深圳",
      "location": "",
      "created": 1463618411,
      "news": {},
      "type": "",
      "id": "f33b7f56-ece0-4544-9f2c-78c80270aca3",
      "baiduad": {},
      "USID": "",
      "url": [],
      "principal": "",
      "address": "",
      "dataversion": "draft1",
      "province": "广东"
    },
    "顺德庄头医院": {
      "shareholder": [],
      "name": "顺德庄头医院",
      "comments": {},
      "note": "",
      "phone": [],
      "putian": {},
      "city": "佛山",
      "location": "",
      "created": 1463618411,
      "news": {},
      "type": "",
      "id": "0ad70294-dadd-4ef1-a1ac-8118c3e8e912",
      "baiduad": {},
      "USID": "",
      "url": [],
      "principal": "",
      "address": "",
      "dataversion": "draft1",
      "province": "广东"
    },
    "肇庆福康医院": {
      "shareholder": [],
      "name": "肇庆福康医院",
      "comments": {},
      "note": "",
      "phone": [],
      "putian": {},
      "city": "肇庆",
      "location": "",
      "created": 1463618411,
      "news": {},
      "type": "",
      "id": "9ffd3f37-6175-44c3-992b-b0e491858ed3",
      "baiduad": {},
      "USID": "",
      "url": [],
      "principal": "",
      "address": "",
      "dataversion": "draft1",
      "province": "广东"
    },
    "广州现代医院": {
      "shareholder": [],
      "name": "广州现代医院",
      "comments": {},
      "note": "",
      "phone": [],
      "putian": {},
      "city": "广州",
      "location": "",
      "created": 1463618411,
      "news": {},
      "type": "",
      "id": "a32c7c17-d7e1-4dd8-9527-f1814010ffa7",
      "baiduad": {},
      "USID": "",
      "url": [],
      "principal": "",
      "address": "",
      "dataversion": "draft1",
      "province": "广东"
    },
    "深圳仁爱医院": {
      "shareholder": [],
      "name": "深圳仁爱医院",
      "comments": {},
      "note": "",
      "phone": [],
      "putian": {},
      "city": "深圳",
      "location": "",
      "created": 1463618411,
      "news": {},
      "type": "",
      "id": "74b00b95-9027-4a9b-9dc2-fc116066b536",
      "baiduad": {},
      "USID": "",
      "url": [],
      "principal": "",
      "address": "",
      "dataversion": "draft1",
      "province": "广东"
    },
    "珠海惠爱医院": {
      "shareholder": [],
      "name": "珠海惠爱医院",
      "comments": {},
      "note": "",
      "phone": [],
      "putian": {},
      "city": "珠海",
      "location": "",
      "created": 1463618411,
      "news": {},
      "type": "",
      "id": "2f83d20f-d586-4723-98e5-d4725be6ae6b",
      "baiduad": {},
      "USID": "",
      "url": [],
      "principal": "",
      "address": "",
      "dataversion": "draft1",
      "province": "广东"
    },
    "广州济慈医院": {
      "shareholder": [],
      "name": "广州济慈医院",
      "comments": {},
      "note": "",
      "phone": [],
      "putian": {},
      "city": "广州",
      "location": "",
      "created": 1463618411,
      "news": {},
      "type": "",
      "id": "b6882c7a-5f49-4a27-b2ff-d487e0bccedd",
      "baiduad": {},
      "USID": "",
      "url": [],
      "principal": "",
      "address": "",
      "dataversion": "draft1",
      "province": "广东"
    },
    "广州利德医院": {
      "shareholder": [],
      "name": "广州利德医院",
      "comments": {},
      "note": "",
      "phone": [],
      "putian": {},
      "city": "广州",
      "location": "",
      "created": 1463618411,
      "news": {},
      "type": "",
      "id": "c60e9d39-f361-4d87-938a-411b1cf06ffd",
      "baiduad": {},
      "USID": "",
      "url": [],
      "principal": "",
      "address": "",
      "dataversion": "draft1",
      "province": "广东"
    },
    "广东民安医院": {
      "shareholder": [],
      "name": "广东民安医院",
      "comments": {},
      "note": "",
      "phone": [],
      "putian": {},
      "city": "广州",
      "location": "",
      "created": 1463618411,
      "news": {},
      "type": "",
      "id": "c31f682e-6bd2-4894-950b-f4c5805aca9a",
      "baiduad": {},
      "USID": "",
      "url": [],
      "principal": "",
      "address": "",
      "dataversion": "draft1",
      "province": "广东"
    },
    "番禺东方俪人医院": {
      "shareholder": [],
      "name": "番禺东方俪人医院",
      "comments": {},
      "note": "",
      "phone": [],
      "putian": {},
      "city": "广州",
      "location": "",
      "created": 1463618411,
      "news": {},
      "type": "",
      "id": "ee0cf09d-4788-4c2f-9765-a8c7299169db",
      "baiduad": {},
      "USID": "",
      "url": [],
      "principal": "",
      "address": "",
      "dataversion": "draft1",
      "province": "广东"
    },
    "深圳雪象医院": {
      "shareholder": [],
      "name": "深圳雪象医院",
      "comments": {},
      "note": "",
      "phone": [],
      "putian": {},
      "city": "深圳",
      "location": "",
      "created": 1463618411,
      "news": {},
      "type": "",
      "id": "f30bd710-8912-4008-a2a8-02e08ba0d957",
      "baiduad": {},
      "USID": "",
      "url": [],
      "principal": "",
      "address": "",
      "dataversion": "draft1",
      "province": "广东"
    },
    "广州市江南医院": {
      "shareholder": [],
      "name": "广州市江南医院",
      "comments": {},
      "note": "",
      "phone": [],
      "putian": {},
      "city": "广州",
      "location": "",
      "created": 1463618411,
      "news": {},
      "type": "",
      "id": "2b7fd1dd-96b8-407d-ac1a-15ce66044c35",
      "baiduad": {},
      "USID": "",
      "url": [],
      "principal": "",
      "address": "",
      "dataversion": "draft1",
      "province": "广东"
    },
    "深圳国瑞泌尿外科医院": {
      "shareholder": [],
      "name": "深圳国瑞泌尿外科医院",
      "comments": {},
      "note": "",
      "phone": [],
      "putian": {},
      "city": "深圳",
      "location": "",
      "created": 1463618411,
      "news": {},
      "type": "",
      "id": "b291aacc-b3ac-4753-bbee-daa92cf58ab9",
      "baiduad": {},
      "USID": "",
      "url": [],
      "principal": "",
      "address": "",
      "dataversion": "draft1",
      "province": "广东"
    },
    "广州长安医院": {
      "shareholder": [],
      "name": "广州长安医院",
      "comments": {},
      "note": "",
      "phone": [],
      "putian": {},
      "city": "广州",
      "location": "",
      "created": 1463618411,
      "news": {},
      "type": "",
      "id": "5a9f5122-70a8-4ffd-a28d-b22dcfac458d",
      "baiduad": {},
      "USID": "",
      "url": [],
      "principal": "",
      "address": "",
      "dataversion": "draft1",
      "province": "广东"
    },
    "顺德阳光康复医院": {
      "shareholder": [],
      "name": "顺德阳光康复医院",
      "comments": {},
      "note": "",
      "phone": [],
      "putian": {},
      "city": "佛山",
      "location": "",
      "created": 1463618411,
      "news": {},
      "type": "",
      "id": "66ce06e8-360a-4789-853a-eb8b1c52b859",
      "baiduad": {},
      "USID": "",
      "url": [],
      "principal": "",
      "address": "",
      "dataversion": "draft1",
      "province": "广东"
    },
    "广州益寿医院": {
      "shareholder": [],
      "name": "广州益寿医院",
      "comments": {},
      "note": "",
      "phone": [],
      "putian": {},
      "city": "广州",
      "location": "",
      "created": 1463618411,
      "news": {},
      "type": "",
      "id": "ad173d25-571a-4682-ba8e-a3145ac55864",
      "baiduad": {},
      "USID": "",
      "url": [],
      "principal": "",
      "address": "",
      "dataversion": "draft1",
      "province": "广东"
    },
    "番禺玛莉亚肛肠医院": {
      "shareholder": [],
      "name": "番禺玛莉亚肛肠医院",
      "comments": {},
      "note": "",
      "phone": [],
      "putian": {},
      "city": "广州",
      "location": "",
      "created": 1463618411,
      "news": {},
      "type": "",
      "id": "8b92b6cf-d7cb-4103-afeb-35ff343fc096",
      "baiduad": {},
      "USID": "",
      "url": [],
      "principal": "",
      "address": "",
      "dataversion": "draft1",
      "province": "广东"
    },
    "佛山三水女子医院": {
      "shareholder": [],
      "name": "佛山三水女子医院",
      "comments": {},
      "note": "",
      "phone": [],
      "putian": {},
      "city": "佛山",
      "location": "",
      "created": 1463618411,
      "news": {},
      "type": "",
      "id": "2057f2df-6a94-4c07-9d9a-742fa24a6d92",
      "baiduad": {},
      "USID": "",
      "url": [],
      "principal": "",
      "address": "",
      "dataversion": "draft1",
      "province": "广东"
    },
    "深圳健丰医院": {
      "shareholder": [],
      "name": "深圳健丰医院",
      "comments": {},
      "note": "",
      "phone": [],
      "putian": {},
      "city": "深圳",
      "location": "",
      "created": 1463618411,
      "news": {},
      "type": "",
      "id": "ff718ee2-6aa9-4d23-81d5-cbfa88393130",
      "baiduad": {},
      "USID": "",
      "url": [],
      "principal": "",
      "address": "",
      "dataversion": "draft1",
      "province": "广东"
    },
    "塘厦康桥医院": {
      "shareholder": [],
      "name": "塘厦康桥医院",
      "comments": {},
      "note": "",
      "phone": [],
      "putian": {},
      "city": "东莞",
      "location": "",
      "created": 1463618411,
      "news": {},
      "type": "",
      "id": "bb6786a8-a610-44ef-8527-003d9cbb1a1a",
      "baiduad": {},
      "USID": "",
      "url": [],
      "principal": "",
      "address": "",
      "dataversion": "draft1",
      "province": "广东"
    },
    "顺德阳新侠义道光康复医院": {
      "shareholder": [],
      "name": "顺德阳新侠义道光康复医院",
      "comments": {},
      "note": "",
      "phone": [],
      "putian": {},
      "city": "佛山",
      "location": "",
      "created": 1463618411,
      "news": {},
      "type": "",
      "id": "1e86cc47-5b29-4cf9-a5dd-286011e5574c",
      "baiduad": {},
      "USID": "",
      "url": [],
      "principal": "",
      "address": "",
      "dataversion": "draft1",
      "province": "广东"
    },
    "广东福康医院": {
      "shareholder": [],
      "name": "广东福康医院",
      "comments": {},
      "note": "",
      "phone": [],
      "putian": {},
      "city": "广州",
      "location": "",
      "created": 1463618411,
      "news": {},
      "type": "",
      "id": "f30da487-f398-4ec6-baaf-e9a9d94dc403",
      "baiduad": {},
      "USID": "",
      "url": [],
      "principal": "",
      "address": "",
      "dataversion": "draft1",
      "province": "广东"
    },
    "珠海阳光医院": {
      "shareholder": [],
      "name": "珠海阳光医院",
      "comments": {},
      "note": "",
      "phone": [],
      "putian": {},
      "city": "珠海",
      "location": "",
      "created": 1463618411,
      "news": {},
      "type": "",
      "id": "9cdc6a3a-57c9-4871-b104-ed393e2e47b6",
      "baiduad": {},
      "USID": "",
      "url": [],
      "principal": "",
      "address": "",
      "dataversion": "draft1",
      "province": "广东"
    },
    "深圳曙光医院": {
      "shareholder": [],
      "name": "深圳曙光医院",
      "comments": {},
      "note": "",
      "phone": [],
      "putian": {},
      "city": "深圳",
      "location": "",
      "created": 1463618411,
      "news": {},
      "type": "",
      "id": "994d18d5-8f73-44ce-9126-fb65f9bb5b51",
      "baiduad": {},
      "USID": "",
      "url": [],
      "principal": "",
      "address": "",
      "dataversion": "draft1",
      "province": "广东"
    },
    "东莞万福妇产医院": {
      "shareholder": [],
      "name": "东莞万福妇产医院",
      "comments": {},
      "note": "",
      "phone": [],
      "putian": {},
      "city": "东莞",
      "location": "",
      "created": 1463618411,
      "news": {},
      "type": "",
      "id": "6b70366a-33fd-4165-bd73-5171bf7235df",
      "baiduad": {},
      "USID": "",
      "url": [],
      "principal": "",
      "address": "",
      "dataversion": "draft1",
      "province": "广东"
    },
    "深圳健安医院": {
      "shareholder": [],
      "name": "深圳健安医院",
      "comments": {},
      "note": "",
      "phone": [],
      "putian": {},
      "city": "深圳",
      "location": "",
      "created": 1463618411,
      "news": {},
      "type": "",
      "id": "7aefdaac-ffed-40c6-b7cc-56591802104f",
      "baiduad": {},
      "USID": "",
      "url": [],
      "principal": "",
      "address": "",
      "dataversion": "draft1",
      "province": "广东"
    },
    "江门玛丽妇科医院": {
      "shareholder": [],
      "name": "江门玛丽妇科医院",
      "comments": {},
      "note": "",
      "phone": [],
      "putian": {},
      "city": "江门",
      "location": "",
      "created": 1463618411,
      "news": {},
      "type": "",
      "id": "503796cf-3308-458e-bac1-62a340ce46de",
      "baiduad": {},
      "USID": "",
      "url": [],
      "principal": "",
      "address": "",
      "dataversion": "draft1",
      "province": "广东"
    },
    "东莞乌沙医院": {
      "shareholder": [],
      "name": "东莞乌沙医院",
      "comments": {},
      "note": "",
      "phone": [],
      "putian": {},
      "city": "东莞",
      "location": "",
      "created": 1463618411,
      "news": {},
      "type": "",
      "id": "09bbc68a-245c-41e0-ba9b-1be24982116b",
      "baiduad": {},
      "USID": "",
      "url": [],
      "principal": "",
      "address": "",
      "dataversion": "draft1",
      "province": "广东"
    },
    "东莞现代妇科医院": {
      "shareholder": [],
      "name": "东莞现代妇科医院",
      "comments": {},
      "note": "",
      "phone": [],
      "putian": {},
      "city": "东莞",
      "location": "",
      "created": 1463618411,
      "news": {},
      "type": "",
      "id": "1816adfe-426b-4ede-858c-2e2018c00087",
      "baiduad": {},
      "USID": "",
      "url": [],
      "principal": "",
      "address": "",
      "dataversion": "draft1",
      "province": "广东"
    },
    "东莞南华妇科医院": {
      "shareholder": [],
      "name": "东莞南华妇科医院",
      "comments": {},
      "note": "",
      "phone": [],
      "putian": {},
      "city": "东莞",
      "location": "",
      "created": 1463618411,
      "news": {},
      "type": "",
      "id": "5c01208c-181d-464b-9bb7-d803042e94bd",
      "baiduad": {},
      "USID": "",
      "url": [],
      "principal": "",
      "address": "",
      "dataversion": "draft1",
      "province": "广东"
    },
    "广州女子医院": {
      "shareholder": [],
      "name": "广州女子医院",
      "comments": {},
      "note": "",
      "phone": [],
      "putian": {},
      "city": "广州",
      "location": "",
      "created": 1463618411,
      "news": {},
      "type": "",
      "id": "1c6258d4-b1e6-4975-a070-3eaaf3d711e8",
      "baiduad": {},
      "USID": "",
      "url": [],
      "principal": "",
      "address": "",
      "dataversion": "draft1",
      "province": "广东"
    },
    "广州花都人爱医院": {
      "shareholder": [],
      "name": "广州花都人爱医院",
      "comments": {},
      "note": "",
      "phone": [],
      "putian": {},
      "city": "广州",
      "location": "",
      "created": 1463618411,
      "news": {},
      "type": "",
      "id": "a4ec4642-0b12-4337-af94-32af90b319f9",
      "baiduad": {},
      "USID": "",
      "url": [],
      "principal": "",
      "address": "",
      "dataversion": "draft1",
      "province": "广东"
    },
    "顺德新世纪泌尿医院": {
      "shareholder": [],
      "name": "顺德新世纪泌尿医院",
      "comments": {},
      "note": "",
      "phone": [],
      "putian": {},
      "city": "佛山",
      "location": "",
      "created": 1463618411,
      "news": {},
      "type": "",
      "id": "0c392aae-541b-45bd-9afc-d5b431688983",
      "baiduad": {},
      "USID": "",
      "url": [],
      "principal": "",
      "address": "",
      "dataversion": "draft1",
      "province": "广东"
    },
    "惠阳女子医院": {
      "shareholder": [],
      "name": "惠阳女子医院",
      "comments": {},
      "note": "",
      "phone": [],
      "putian": {},
      "city": "惠州",
      "location": "",
      "created": 1463618411,
      "news": {},
      "type": "",
      "id": "e327c53d-ec8b-4dd0-a255-f67e0faa3eee",
      "baiduad": {},
      "USID": "",
      "url": [],
      "principal": "",
      "address": "",
      "dataversion": "draft1",
      "province": "广东"
    },
    "东莞玛丽亚妇产医院": {
      "shareholder": [
        ""
      ],
      "name": "东莞玛丽亚妇产医院",
      "comments": {
        "evidence": [
          {
            "snapshot": "",
            "url": "",
            "title": "",
            "dateline": ""
          }
        ]
      },
      "note": "",
      "phone": [
        "0769-22993333"
      ],
      "putian": {},
      "city": "东莞",
      "created": 1463619705,
      "news": {
        "evidence": [
          {
            "snapshot": "",
            "url": "",
            "title": "",
            "dateline": ""
          }
        ]
      },
      "type": "民营医院",
      "id": "e5e04698-2a6a-4a49-a14e-f80f9c4cad8e",
      "baiduad": {},
      "USID": "",
      "url": [
        "http://www.dgmaria.cn/"
      ],
      "principal": "",
      "address": "东莞南城莞太大道(广彩城酒店旁)",
      "updated": 1463619705,
      "dataversion": "draft1",
      "province": "广东"
    },
    "中山市国丹中医院": {
      "shareholder": [],
      "name": "中山市国丹中医院",
      "comments": {},
      "note": "",
      "phone": [],
      "putian": {},
      "city": "中山",
      "location": "",
      "created": 1463618411,
      "news": {},
      "type": "",
      "id": "e814740b-e5ed-471b-bd1d-664181ff1918",
      "baiduad": {},
      "USID": "",
      "url": [],
      "principal": "",
      "address": "",
      "dataversion": "draft1",
      "province": "广东"
    },
    "汕头妇产医院": {
      "shareholder": [],
      "name": "汕头妇产医院",
      "comments": {},
      "note": "",
      "phone": [],
      "putian": {},
      "city": "汕头",
      "location": "",
      "created": 1463618411,
      "news": {},
      "type": "",
      "id": "d3dfa9e1-4db1-4c91-b3f9-96b136c28468",
      "baiduad": {},
      "USID": "",
      "url": [],
      "principal": "",
      "address": "",
      "dataversion": "draft1",
      "province": "广东"
    },
    "深圳韩美医疗美容医院": {
      "shareholder": [],
      "name": "深圳韩美医疗美容医院",
      "comments": {},
      "note": "",
      "phone": [],
      "putian": {},
      "city": "深圳",
      "location": "",
      "created": 1463618411,
      "news": {},
      "type": "",
      "id": "70f0bf71-fe99-4675-bec7-b0de49bd69d8",
      "baiduad": {},
      "USID": "",
      "url": [],
      "principal": "",
      "address": "",
      "dataversion": "draft1",
      "province": "广东"
    },
    "深圳阳光医院": {
      "shareholder": [],
      "name": "深圳阳光医院",
      "comments": {},
      "note": "",
      "phone": [],
      "putian": {},
      "city": "深圳",
      "location": "",
      "created": 1463618411,
      "news": {},
      "type": "",
      "id": "de9d5d8b-cd67-4cb3-9a9e-9fb475a17184",
      "baiduad": {},
      "USID": "",
      "url": [],
      "principal": "",
      "address": "",
      "dataversion": "draft1",
      "province": "广东"
    },
    "中山现代妇科医院": {
      "shareholder": [],
      "name": "中山现代妇科医院",
      "comments": {},
      "note": "",
      "phone": [],
      "putian": {},
      "city": "中山",
      "location": "",
      "created": 1463618411,
      "news": {},
      "type": "",
      "id": "29394b3b-f54e-45ab-8e89-d3f3658e3a28",
      "baiduad": {},
      "USID": "",
      "url": [],
      "principal": "",
      "address": "",
      "dataversion": "draft1",
      "province": "广东"
    },
    "深圳仁康医院": {
      "shareholder": [],
      "name": "深圳仁康医院",
      "comments": {},
      "note": "",
      "phone": [],
      "putian": {},
      "city": "深圳",
      "location": "",
      "created": 1463618411,
      "news": {},
      "type": "",
      "id": "b6fd5187-f62b-4206-a956-377ae67c0d5c",
      "baiduad": {},
      "USID": "",
      "url": [],
      "principal": "",
      "address": "",
      "dataversion": "draft1",
      "province": "广东"
    },
    "广州远东美容医院": {
      "shareholder": [],
      "name": "广州远东美容医院",
      "comments": {},
      "note": "",
      "phone": [],
      "putian": {},
      "city": "广州",
      "location": "",
      "created": 1463618411,
      "news": {},
      "type": "",
      "id": "c5a47cd7-913a-4e9e-ae5f-024bfe31147b",
      "baiduad": {},
      "USID": "",
      "url": [],
      "principal": "",
      "address": "",
      "dataversion": "draft1",
      "province": "广东"
    },
    "顺德广济中医院": {
      "shareholder": [],
      "name": "顺德广济中医院",
      "comments": {},
      "note": "",
      "phone": [],
      "putian": {},
      "city": "佛山",
      "location": "",
      "created": 1463618411,
      "news": {},
      "type": "",
      "id": "5997c56e-af9c-4d9b-9094-1de36ad00c2d",
      "baiduad": {},
      "USID": "",
      "url": [],
      "principal": "",
      "address": "",
      "dataversion": "draft1",
      "province": "广东"
    },
    "肇庆现代男科医院": {
      "shareholder": [
        ""
      ],
      "name": "肇庆现代男科医院",
      "comments": {
        "evidence": [
          {
            "snapshot": "",
            "url": "",
            "title": "",
            "dateline": ""
          }
        ]
      },
      "note": "",
      "phone": [
        "0758-2221120"
      ],
      "putian": {},
      "city": "肇庆",
      "created": 1463619753,
      "news": {
        "evidence": [
          {
            "snapshot": "",
            "url": "",
            "title": "",
            "dateline": ""
          }
        ]
      },
      "type": "民营医院",
      "id": "cd740660-47d2-4fca-81f1-32858e390448",
      "baiduad": {},
      "USID": "",
      "url": [
        "http://zqnkyy120.com/"
      ],
      "principal": "",
      "address": "肇庆市端州区二塔路中段（市二人民医院前行20米左转）",
      "updated": 1463619753,
      "dataversion": "draft1",
      "province": "广东"
    },
    "惠州东江泌尿专科医院": {
      "shareholder": [],
      "name": "惠州东江泌尿专科医院",
      "comments": {},
      "note": "",
      "phone": [],
      "putian": {},
      "city": "惠州",
      "location": "",
      "created": 1463618411,
      "news": {},
      "type": "",
      "id": "fbb8b780-45d3-49f7-8b9e-1e3565db7f71",
      "baiduad": {},
      "USID": "",
      "url": [],
      "principal": "",
      "address": "",
      "dataversion": "draft1",
      "province": "广东"
    },
    "深圳华南妇科医院": {
      "shareholder": [],
      "name": "深圳华南妇科医院",
      "comments": {},
      "note": "",
      "phone": [],
      "putian": {},
      "city": "深圳",
      "location": "",
      "created": 1463618411,
      "news": {},
      "type": "",
      "id": "1a66ed97-c0c2-4655-8597-f27e3b77cb38",
      "baiduad": {},
      "USID": "",
      "url": [],
      "principal": "",
      "address": "",
      "dataversion": "draft1",
      "province": "广东"
    },
    "深圳博爱医院": {
      "shareholder": [],
      "name": "深圳博爱医院",
      "comments": {},
      "note": "",
      "phone": [],
      "putian": {},
      "city": "深圳",
      "location": "",
      "created": 1463618411,
      "news": {},
      "type": "",
      "id": "36f09926-026d-4bc1-a05d-fe59bcd8d332",
      "baiduad": {},
      "USID": "",
      "url": [],
      "principal": "",
      "address": "",
      "dataversion": "draft1",
      "province": "广东"
    },
    "广州华美美莱整形医院": {
      "shareholder": [],
      "name": "广州华美美莱整形医院",
      "comments": {},
      "note": "",
      "phone": [],
      "putian": {},
      "city": "广州",
      "location": "",
      "created": 1463618411,
      "news": {},
      "type": "",
      "id": "9cb23e1e-cd29-4faf-9f8c-239dc9fa4f78",
      "baiduad": {},
      "USID": "",
      "url": [],
      "principal": "",
      "address": "",
      "dataversion": "draft1",
      "province": "广东"
    },
    "广州458医院": {
      "shareholder": [],
      "name": "广州458医院",
      "comments": {},
      "note": "",
      "phone": [],
      "putian": {},
      "city": "广州",
      "location": "",
      "created": 1463618411,
      "news": {},
      "type": "",
      "id": "9474a47b-65ce-42dc-9ba8-7f97452a247d",
      "baiduad": {},
      "USID": "",
      "url": [],
      "principal": "",
      "address": "",
      "dataversion": "draft1",
      "province": "广东"
    },
    "东莞康桥妇科医院": {
      "shareholder": [],
      "name": "东莞康桥妇科医院",
      "comments": {},
      "note": "",
      "phone": [],
      "putian": {},
      "city": "东莞",
      "location": "",
      "created": 1463618411,
      "news": {},
      "type": "",
      "id": "8f273e77-e307-4c21-be5c-b2dbf55e6dd2",
      "baiduad": {},
      "USID": "",
      "url": [],
      "principal": "",
      "address": "",
      "dataversion": "draft1",
      "province": "广东"
    },
    "广州长泰医院": {
      "shareholder": [],
      "name": "广州长泰医院",
      "comments": {},
      "note": "",
      "phone": [],
      "putian": {},
      "city": "广州",
      "location": "",
      "created": 1463618411,
      "news": {},
      "type": "",
      "id": "dda476ab-2214-4739-a02f-9479e7d041ba",
      "baiduad": {},
      "USID": "",
      "url": [],
      "principal": "",
      "address": "",
      "dataversion": "draft1",
      "province": "广东"
    },
    "广州圣亚泌尿外科医院": {
      "shareholder": [],
      "name": "广州圣亚泌尿外科医院",
      "comments": {},
      "note": "",
      "phone": [],
      "putian": {},
      "city": "广州",
      "location": "",
      "created": 1463618411,
      "news": {},
      "type": "",
      "id": "ed91bae6-ca0c-466f-89a8-8ab6a19d17b7",
      "baiduad": {},
      "USID": "",
      "url": [],
      "principal": "",
      "address": "",
      "dataversion": "draft1",
      "province": "广东"
    },
    "广州健安医院": {
      "shareholder": [],
      "name": "广州健安医院",
      "comments": {},
      "note": "",
      "phone": [],
      "putian": {},
      "city": "广州",
      "location": "",
      "created": 1463618411,
      "news": {},
      "type": "",
      "id": "0a7d84af-d345-4e33-9fd0-52cc64afadc4",
      "baiduad": {},
      "USID": "",
      "url": [],
      "principal": "",
      "address": "",
      "dataversion": "draft1",
      "province": "广东"
    },
    "江门福康医院": {
      "shareholder": [],
      "name": "江门福康医院",
      "comments": {},
      "note": "",
      "phone": [],
      "putian": {},
      "city": "江门",
      "location": "",
      "created": 1463618411,
      "news": {},
      "type": "",
      "id": "06bfcece-3a0a-4db9-a694-aaea3b21469a",
      "baiduad": {},
      "USID": "",
      "url": [],
      "principal": "",
      "address": "",
      "dataversion": "draft1",
      "province": "广东"
    },
    "深圳龙济医院": {
      "shareholder": [],
      "name": "深圳龙济医院",
      "comments": {},
      "note": "",
      "phone": [],
      "putian": {},
      "city": "深圳",
      "location": "",
      "created": 1463618411,
      "news": {},
      "type": "",
      "id": "4e8e260e-f593-4214-8677-a013aa668445",
      "baiduad": {},
      "USID": "",
      "url": [],
      "principal": "",
      "address": "",
      "dataversion": "draft1",
      "province": "广东"
    },
    "深圳罗岗医院": {
      "shareholder": [],
      "name": "深圳罗岗医院",
      "comments": {},
      "note": "",
      "phone": [],
      "putian": {},
      "city": "深圳",
      "location": "",
      "created": 1463618411,
      "news": {},
      "type": "",
      "id": "2961b723-eef2-4b00-ae65-fadff30d8cc7",
      "baiduad": {},
      "USID": "",
      "url": [],
      "principal": "",
      "address": "",
      "dataversion": "draft1",
      "province": "广东"
    },
    "东莞东方泌尿专科医院": {
      "shareholder": [],
      "name": "东莞东方泌尿专科医院",
      "comments": {},
      "note": "",
      "phone": [],
      "putian": {},
      "city": "东莞",
      "location": "",
      "created": 1463618411,
      "news": {},
      "type": "",
      "id": "7aef7070-4ce2-4ec4-8ffb-777c0c92e28e",
      "baiduad": {},
      "USID": "",
      "url": [],
      "principal": "",
      "address": "",
      "dataversion": "draft1",
      "province": "广东"
    },
    "深圳福华中西医结合医院": {
      "shareholder": [],
      "name": "深圳福华中西医结合医院",
      "comments": {},
      "note": "",
      "phone": [],
      "putian": {},
      "city": "深圳",
      "location": "",
      "created": 1463618411,
      "news": {},
      "type": "",
      "id": "911371b8-fa68-4d7b-b3bd-2c567bf7293c",
      "baiduad": {},
      "USID": "",
      "url": [],
      "principal": "",
      "address": "",
      "dataversion": "draft1",
      "province": "广东"
    },
    "深圳美莱美容医院": {
      "shareholder": [],
      "name": "深圳美莱美容医院",
      "comments": {},
      "note": "",
      "phone": [],
      "putian": {},
      "city": "深圳",
      "location": "",
      "created": 1463618411,
      "news": {},
      "type": "",
      "id": "0a3bc5af-6e81-4bd1-aa1d-4899d018691e",
      "baiduad": {},
      "USID": "",
      "url": [],
      "principal": "",
      "address": "",
      "dataversion": "draft1",
      "province": "广东"
    },
    "深圳远东妇儿科医院": {
      "shareholder": [],
      "name": "深圳远东妇儿科医院",
      "comments": {},
      "note": "",
      "phone": [],
      "putian": {},
      "city": "深圳",
      "location": "",
      "created": 1463618411,
      "news": {},
      "type": "",
      "id": "ae23cd9a-849d-423b-bfc1-4c25ac6017a0",
      "baiduad": {},
      "USID": "",
      "url": [],
      "principal": "",
      "address": "",
      "dataversion": "draft1",
      "province": "广东"
    },
    "深圳和美妇儿科医院": {
      "shareholder": [],
      "name": "深圳和美妇儿科医院",
      "comments": {},
      "note": "",
      "phone": [],
      "putian": {},
      "city": "深圳",
      "location": "",
      "created": 1463618411,
      "news": {},
      "type": "",
      "id": "eb8d5ab3-ed8f-4692-aff1-16c6a85fdcf2",
      "baiduad": {},
      "USID": "",
      "url": [],
      "principal": "",
      "address": "",
      "dataversion": "draft1",
      "province": "广东"
    },
    "深圳中仁泌尿外科医院": {
      "shareholder": [
        ""
      ],
      "name": "深圳中仁泌尿外科医院",
      "comments": {
        "evidence": [
          {
            "snapshot": "",
            "url": "",
            "title": "",
            "dateline": ""
          }
        ]
      },
      "note": "",
      "phone": [
        "4008669999"
      ],
      "putian": {
        "confirm": "Yes",
        "evidence": [
          {
            "snapshot": "http://imgur.com/5PiBr6e",
            "url": "http://szcredit.com.cn/web/gspt/newGSPTDetail3.aspx?ID=fdc9ca483af345c093af7b624e76764f",
            "title": "深圳中仁泌尿外科医院有限公司",
            "dateline": ""
          },
          {
            "snapshot": "http://imgur.com/PdDIwHo",
            "url": "http://www.ptws.com.cn/DoctorBrief/48870580140.shtml",
            "title": "莆田市卫生综合服务网－专家介绍",
            "dateline": ""
          }
        ]
      },
      "city": "深圳",
      "created": 1463620107,
      "news": {
        "evidence": [
          {
            "snapshot": "",
            "url": "",
            "title": "",
            "dateline": ""
          }
        ]
      },
      "type": "民营医院",
      "id": "544583ee-c558-495d-a92f-7ffd7e05117b",
      "baiduad": {},
      "USID": "",
      "url": [
        "http://yyk.99.com.cn/baoan/105761/"
      ],
      "principal": "林国金",
      "address": "深圳市龙华新区龙华办事处工业西路97号",
      "updated": 1463620107,
      "dataversion": "draft1",
      "province": "广东"
    },
    "珠海九龙医院": {
      "shareholder": [],
      "name": "珠海九龙医院",
      "comments": {},
      "note": "",
      "phone": [],
      "putian": {},
      "city": "珠海",
      "location": "",
      "created": 1463618411,
      "news": {},
      "type": "",
      "id": "803eb4c5-ae25-437e-9c18-fa6cfdd1a307",
      "baiduad": {},
      "USID": "",
      "url": [],
      "principal": "",
      "address": "",
      "dataversion": "draft1",
      "province": "广东"
    }
  },
  "info": {
    "date": "2016年05月19日",
    "version": "draft1",
    "license": "https://github.com/open-power-workgroup/Hospital/blob/master/open_data_usage_license.md"
  }
}