{
  "data": {
    "文山圣玛妇产医院": {
      "putian": {},
      "name": "文山圣玛妇产医院",
      "id": "72aa24ae-a65f-471e-8e97-2174dbd59fae",
      "note": "",
      "comments": {},
      "type": "",
      "address": "",
      "url": [],
      "dataversion": "draft1",
      "baiduad": {},
      "principal": "",
      "USID": "",
      "created": 1463648652,
      "city": "文山",
      "shareholder": [],
      "province": "云南",
      "phone": [],
      "location": "",
      "news": {}
    },
    "昆明泌尿生殖专科医院": {
      "putian": {},
      "name": "昆明泌尿生殖专科医院",
      "id": "a3c0c4dd-d45f-4dda-af6a-951c39cf83c5",
      "note": "",
      "comments": {},
      "type": "",
      "address": "",
      "url": [],
      "dataversion": "draft1",
      "baiduad": {},
      "principal": "",
      "USID": "",
      "created": 1463648652,
      "city": "昆明",
      "shareholder": [],
      "province": "云南",
      "phone": [],
      "location": "",
      "news": {}
    },
    "昆明东大肛肠医院": {
      "putian": {},
      "name": "昆明东大肛肠医院",
      "id": "82348900-8437-4727-a43a-9bdb2e2f70c8",
      "note": "",
      "comments": {},
      "type": "",
      "address": "",
      "url": [],
      "dataversion": "draft1",
      "baiduad": {},
      "principal": "",
      "USID": "",
      "created": 1463648652,
      "city": "昆明",
      "shareholder": [],
      "province": "云南",
      "phone": [],
      "location": "",
      "news": {}
    },
    "昆明送子鸟不孕不育医院": {
      "putian": {},
      "name": "昆明送子鸟不孕不育医院",
      "id": "0695d51c-fb6f-4b73-8613-c71d1b0ab2e1",
      "note": "",
      "comments": {},
      "type": "",
      "address": "",
      "url": [],
      "dataversion": "draft1",
      "baiduad": {},
      "principal": "",
      "USID": "",
      "created": 1463648652,
      "city": "昆明",
      "shareholder": [],
      "province": "云南",
      "phone": [],
      "location": "",
      "news": {}
    },
    "昆明西昌路医院": {
      "putian": {},
      "name": "昆明西昌路医院",
      "id": "84c8afbc-437b-49e5-b1d0-39cea9615b8c",
      "note": "",
      "comments": {},
      "type": "",
      "address": "",
      "url": [],
      "dataversion": "draft1",
      "baiduad": {},
      "principal": "",
      "USID": "",
      "created": 1463648652,
      "city": "昆明",
      "shareholder": [],
      "province": "云南",
      "phone": [],
      "location": "",
      "news": {}
    },
    "云南肛泰肛肠医院": {
      "putian": {},
      "name": "云南肛泰肛肠医院",
      "id": "e5cd1516-36f2-482a-a8e8-18167f063ea1",
      "note": "",
      "comments": {},
      "type": "",
      "address": "",
      "url": [],
      "dataversion": "draft1",
      "baiduad": {},
      "principal": "",
      "USID": "",
      "created": 1463648652,
      "city": "昆明",
      "shareholder": [],
      "province": "云南",
      "phone": [],
      "location": "",
      "news": {}
    },
    "昆明丽都仁爱医疗美容医院": {
      "putian": {},
      "name": "昆明丽都仁爱医疗美容医院",
      "id": "fccc9414-6872-49df-b3f0-f2210ca1102f",
      "note": "",
      "comments": {},
      "type": "",
      "address": "",
      "url": [],
      "dataversion": "draft1",
      "baiduad": {},
      "principal": "",
      "USID": "",
      "created": 1463648652,
      "city": "昆明",
      "shareholder": [],
      "province": "云南",
      "phone": [],
      "location": "",
      "news": {}
    },
    "昆明曙光医院": {
      "putian": {},
      "name": "昆明曙光医院",
      "id": "cc3845d6-a4d6-47f7-a628-8b1d28a50047",
      "note": "",
      "comments": {},
      "type": "",
      "address": "",
      "url": [],
      "dataversion": "draft1",
      "baiduad": {},
      "principal": "",
      "USID": "",
      "created": 1463648652,
      "city": "昆明",
      "shareholder": [],
      "province": "云南",
      "phone": [],
      "location": "",
      "news": {}
    },
    "丽江九洲医院": {
      "putian": {},
      "name": "丽江九洲医院",
      "id": "91a2521a-a353-4c3d-bf93-27f1c91b62f4",
      "note": "",
      "comments": {},
      "type": "",
      "address": "",
      "url": [],
      "dataversion": "draft1",
      "baiduad": {},
      "principal": "",
      "USID": "",
      "created": 1463648652,
      "city": "丽江",
      "shareholder": [],
      "province": "云南",
      "phone": [],
      "location": "",
      "news": {}
    },
    "昆明军都三三九医院": {
      "putian": {},
      "name": "昆明军都三三九医院",
      "id": "ce09751b-6242-4183-a720-1a52d76195fe",
      "note": "",
      "comments": {},
      "type": "",
      "address": "",
      "url": [],
      "dataversion": "draft1",
      "baiduad": {},
      "principal": "",
      "USID": "",
      "created": 1463648652,
      "city": "昆明",
      "shareholder": [],
      "province": "云南",
      "phone": [],
      "location": "",
      "news": {}
    },
    "昆明宝岛妇产医院": {
      "putian": {},
      "name": "昆明宝岛妇产医院",
      "id": "4aa49207-7224-4b86-838f-b23ce90d364c",
      "note": "",
      "comments": {},
      "type": "",
      "address": "",
      "url": [],
      "dataversion": "draft1",
      "baiduad": {},
      "principal": "",
      "USID": "",
      "created": 1463648652,
      "city": "昆明",
      "shareholder": [],
      "province": "云南",
      "phone": [],
      "location": "",
      "news": {}
    },
    "文山曙光医院": {
      "putian": {},
      "name": "文山曙光医院",
      "id": "53c5b83f-f7e1-44cf-8836-2a3c1fc6dd3e",
      "note": "",
      "comments": {},
      "type": "",
      "address": "",
      "url": [],
      "dataversion": "draft1",
      "baiduad": {},
      "principal": "",
      "USID": "",
      "created": 1463648652,
      "city": "文山",
      "shareholder": [],
      "province": "云南",
      "phone": [],
      "location": "",
      "news": {}
    },
    "昆明仁爱医院": {
      "putian": {},
      "name": "昆明仁爱医院",
      "id": "4fdbb073-6216-4bad-8c90-2132db0e3578",
      "note": "",
      "comments": {},
      "type": "",
      "address": "",
      "url": [],
      "dataversion": "draft1",
      "baiduad": {},
      "principal": "",
      "USID": "",
      "created": 1463648652,
      "city": "昆明",
      "shareholder": [],
      "province": "云南",
      "phone": [],
      "location": "",
      "news": {}
    },
    "云南玛莉亚女子医院": {
      "putian": {},
      "name": "云南玛莉亚女子医院",
      "id": "d73b53fa-6e42-4239-acdc-d048f9147610",
      "note": "",
      "comments": {},
      "type": "",
      "address": "",
      "url": [],
      "dataversion": "draft1",
      "baiduad": {},
      "principal": "",
      "USID": "",
      "created": 1463648652,
      "city": "昆明",
      "shareholder": [],
      "province": "云南",
      "phone": [],
      "location": "",
      "news": {}
    },
    "武警云南省边防总队医院糖尿病专科": {
      "putian": {},
      "name": "武警云南省边防总队医院糖尿病专科",
      "id": "e8ddfd22-1eca-4882-8143-b77f705d6c10",
      "note": "",
      "comments": {},
      "type": "",
      "address": "",
      "url": [],
      "dataversion": "draft1",
      "baiduad": {},
      "principal": "",
      "USID": "",
      "created": 1463648652,
      "city": "昆明",
      "shareholder": [],
      "province": "云南",
      "phone": [],
      "location": "",
      "news": {}
    },
    "昆明华美美莱整形医院": {
      "putian": {},
      "name": "昆明华美美莱整形医院",
      "id": "278cbb1d-5d20-41ec-84e8-47a9bd5566dd",
      "note": "",
      "comments": {},
      "type": "",
      "address": "",
      "url": [],
      "dataversion": "draft1",
      "baiduad": {},
      "principal": "",
      "USID": "",
      "created": 1463648652,
      "city": "昆明",
      "shareholder": [],
      "province": "云南",
      "phone": [],
      "location": "",
      "news": {}
    },
    "昆明和万家妇科医院": {
      "putian": {},
      "name": "昆明和万家妇科医院",
      "id": "33b3d761-93ca-4900-b43b-53a89a061b70",
      "note": "",
      "comments": {},
      "type": "",
      "address": "",
      "url": [],
      "dataversion": "draft1",
      "baiduad": {},
      "principal": "",
      "USID": "",
      "created": 1463648652,
      "city": "昆明",
      "shareholder": [],
      "province": "云南",
      "phone": [],
      "location": "",
      "news": {}
    },
    "昆明圣安妇产医院": {
      "putian": {},
      "name": "昆明圣安妇产医院",
      "id": "cd079e41-5d5a-48bb-be5f-d475cff8692f",
      "note": "",
      "comments": {},
      "type": "",
      "address": "",
      "url": [],
      "dataversion": "draft1",
      "baiduad": {},
      "principal": "",
      "USID": "",
      "created": 1463648652,
      "city": "昆明",
      "shareholder": [],
      "province": "云南",
      "phone": [],
      "location": "",
      "news": {}
    },
    "普洱云美妇产医院": {
      "putian": {},
      "name": "普洱云美妇产医院",
      "id": "ab19f373-0ff0-4233-a57c-12fc35e0f78b",
      "note": "",
      "comments": {},
      "type": "",
      "address": "",
      "url": [],
      "dataversion": "draft1",
      "baiduad": {},
      "principal": "",
      "USID": "",
      "created": 1463648652,
      "city": "普洱",
      "shareholder": [],
      "province": "云南",
      "phone": [],
      "location": "",
      "news": {}
    },
    "昆明都市俪人医院": {
      "putian": {},
      "name": "昆明都市俪人医院",
      "id": "df6c1e88-5351-41c1-bf25-c781949821c5",
      "note": "",
      "comments": {},
      "type": "",
      "address": "",
      "url": [],
      "dataversion": "draft1",
      "baiduad": {},
      "principal": "",
      "USID": "",
      "created": 1463648652,
      "city": "昆明",
      "shareholder": [],
      "province": "云南",
      "phone": [],
      "location": "",
      "news": {}
    },
    "保山现代妇产医院": {
      "putian": {},
      "name": "保山现代妇产医院",
      "id": "1c4b98dc-ff46-4b0d-a08a-f671feb9e634",
      "note": "",
      "comments": {},
      "type": "",
      "address": "",
      "url": [],
      "dataversion": "draft1",
      "baiduad": {},
      "principal": "",
      "USID": "",
      "created": 1463648652,
      "city": "保山",
      "shareholder": [],
      "province": "云南",
      "phone": [],
      "location": "",
      "news": {}
    },
    "云南同仁新华医院(新新华医院)": {
      "putian": {},
      "name": "云南同仁新华医院(新新华医院)",
      "id": "8ae869fb-451a-40e9-820f-01622c7220fd",
      "note": "",
      "comments": {},
      "type": "",
      "address": "",
      "url": [],
      "dataversion": "draft1",
      "baiduad": {},
      "principal": "",
      "USID": "",
      "created": 1463648652,
      "city": "昆明",
      "shareholder": [],
      "province": "云南",
      "phone": [],
      "location": "",
      "news": {}
    },
    "昆明阳光医院": {
      "putian": {},
      "name": "昆明阳光医院",
      "id": "06d290eb-6d61-41de-865c-841391099f93",
      "note": "",
      "comments": {},
      "type": "",
      "address": "",
      "url": [],
      "dataversion": "draft1",
      "baiduad": {},
      "principal": "",
      "USID": "",
      "created": 1463648652,
      "city": "昆明",
      "shareholder": [],
      "province": "云南",
      "phone": [],
      "location": "",
      "news": {}
    },
    "临沧市临翔区华西医院": {
      "putian": {},
      "name": "临沧市临翔区华西医院",
      "id": "e7c15e56-17bb-4eaa-8c52-8ce5e69ffbe4",
      "note": "",
      "comments": {},
      "type": "",
      "address": "",
      "url": [],
      "dataversion": "draft1",
      "baiduad": {},
      "principal": "",
      "USID": "",
      "created": 1463648652,
      "city": "临沧",
      "shareholder": [],
      "province": "云南",
      "phone": [],
      "location": "",
      "news": {}
    },
    "昆明九州医院": {
      "putian": {},
      "name": "昆明九州医院",
      "id": "053e52d3-0c6f-4ce2-a9f0-652b5f27e191",
      "note": "",
      "comments": {},
      "type": "",
      "address": "",
      "url": [],
      "dataversion": "draft1",
      "baiduad": {},
      "principal": "",
      "USID": "",
      "created": 1463648652,
      "city": "昆明",
      "shareholder": [],
      "province": "云南",
      "phone": [],
      "location": "",
      "news": {}
    },
    "昆明九州泌尿医院": {
      "putian": {},
      "name": "昆明九州泌尿医院",
      "id": "8267d2f2-210f-4ae0-8516-26ccf56cf773",
      "note": "",
      "comments": {},
      "type": "",
      "address": "",
      "url": [],
      "dataversion": "draft1",
      "baiduad": {},
      "principal": "",
      "USID": "",
      "created": 1463648652,
      "city": "昆明",
      "shareholder": [],
      "province": "云南",
      "phone": [],
      "location": "",
      "news": {}
    },
    "昆明普瑞眼科医院": {
      "putian": {},
      "name": "昆明普瑞眼科医院",
      "id": "f829d5ad-6a8c-44b2-8a7f-0cd3cfc311af",
      "note": "",
      "comments": {},
      "type": "",
      "address": "",
      "url": [],
      "dataversion": "draft1",
      "baiduad": {},
      "principal": "",
      "USID": "",
      "created": 1463648652,
      "city": "昆明",
      "shareholder": [],
      "province": "云南",
      "phone": [],
      "location": "",
      "news": {}
    },
    "解放军478医院妇产中心": {
      "putian": {},
      "name": "解放军478医院妇产中心",
      "id": "310a6b02-e6f1-414c-b228-8f61bdf92ef5",
      "note": "",
      "comments": {},
      "type": "",
      "address": "",
      "url": [],
      "dataversion": "draft1",
      "baiduad": {},
      "principal": "",
      "USID": "",
      "created": 1463648652,
      "city": "昆明",
      "shareholder": [],
      "province": "云南",
      "phone": [],
      "location": "",
      "news": {}
    },
    "昭通玛丽妇产医院": {
      "putian": {},
      "name": "昭通玛丽妇产医院",
      "id": "668ce7ba-eb85-43c5-85f1-5b3b63bcd16f",
      "note": "",
      "comments": {},
      "type": "",
      "address": "",
      "url": [],
      "dataversion": "draft1",
      "baiduad": {},
      "principal": "",
      "USID": "",
      "created": 1463648652,
      "city": "昭通",
      "shareholder": [],
      "province": "云南",
      "phone": [],
      "location": "",
      "news": {}
    },
    "解放军五三三医院": {
      "putian": {},
      "name": "解放军五三三医院",
      "id": "bec9c93c-0c94-4cf4-b712-141cc8e7a102",
      "note": "",
      "comments": {},
      "type": "",
      "address": "",
      "url": [],
      "dataversion": "draft1",
      "baiduad": {},
      "principal": "",
      "USID": "",
      "created": 1463648652,
      "city": "昆明",
      "shareholder": [],
      "province": "云南",
      "phone": [],
      "location": "",
      "news": {}
    },
    "昆明骨科医院": {
      "putian": {},
      "name": "昆明骨科医院",
      "id": "402571ed-9b8e-4497-9267-ea4a10d64981",
      "note": "",
      "comments": {},
      "type": "",
      "address": "",
      "url": [],
      "dataversion": "draft1",
      "baiduad": {},
      "principal": "",
      "USID": "",
      "created": 1463648652,
      "city": "昆明",
      "shareholder": [],
      "province": "云南",
      "phone": [],
      "location": "",
      "news": {}
    },
    "解放军四七八医院妇产中心": {
      "putian": {},
      "name": "解放军四七八医院妇产中心",
      "id": "45fe69dc-cfae-4a91-9fdd-0c1636aedd74",
      "note": "",
      "comments": {},
      "type": "",
      "address": "",
      "url": [],
      "dataversion": "draft1",
      "baiduad": {},
      "principal": "",
      "USID": "",
      "created": 1463648652,
      "city": "昆明",
      "shareholder": [],
      "province": "云南",
      "phone": [],
      "location": "",
      "news": {}
    },
    "富源阳光医院": {
      "putian": {},
      "name": "富源阳光医院",
      "id": "37ee820d-fe1e-4486-bf0a-0fc6a9028a7e",
      "note": "",
      "comments": {},
      "type": "",
      "address": "",
      "url": [],
      "dataversion": "draft1",
      "baiduad": {},
      "principal": "",
      "USID": "",
      "created": 1463648652,
      "city": "曲靖",
      "shareholder": [],
      "province": "云南",
      "phone": [],
      "location": "",
      "news": {}
    },
    "云南现代妇产科医院": {
      "putian": {},
      "name": "云南现代妇产科医院",
      "id": "19ec45c1-5b59-4260-a713-eb88abe4645f",
      "note": "",
      "comments": {},
      "type": "",
      "address": "",
      "url": [],
      "dataversion": "draft1",
      "baiduad": {},
      "principal": "",
      "USID": "",
      "created": 1463648652,
      "city": "昆明",
      "shareholder": [],
      "province": "云南",
      "phone": [],
      "location": "",
      "news": {}
    },
    "昆明天伦妇产医院": {
      "putian": {},
      "name": "昆明天伦妇产医院",
      "id": "a0f6ada4-2f04-4be7-9cae-c23b69070e83",
      "note": "",
      "comments": {},
      "type": "",
      "address": "",
      "url": [],
      "dataversion": "draft1",
      "baiduad": {},
      "principal": "",
      "USID": "",
      "created": 1463648652,
      "city": "昆明",
      "shareholder": [],
      "province": "云南",
      "phone": [],
      "location": "",
      "news": {}
    },
    "昆明华希医院": {
      "putian": {},
      "name": "昆明华希医院",
      "id": "f7d3fdc5-275e-4f4f-aab1-4376b2420d68",
      "note": "",
      "comments": {},
      "type": "",
      "address": "",
      "url": [],
      "dataversion": "draft1",
      "baiduad": {},
      "principal": "",
      "USID": "",
      "created": 1463648652,
      "city": "昆明",
      "shareholder": [],
      "province": "云南",
      "phone": [],
      "location": "",
      "news": {}
    },
    "玉溪九州医院": {
      "putian": {},
      "name": "玉溪九州医院",
      "id": "36c76f7f-d22c-4f84-93c3-4c0123b5ce1e",
      "note": "",
      "comments": {},
      "type": "",
      "address": "",
      "url": [],
      "dataversion": "draft1",
      "baiduad": {},
      "principal": "",
      "USID": "",
      "created": 1463648652,
      "city": "玉溪",
      "shareholder": [],
      "province": "云南",
      "phone": [],
      "location": "",
      "news": {}
    },
    "昆明当代妇产医院": {
      "putian": {},
      "name": "昆明当代妇产医院",
      "id": "6fb8802d-80e6-4f5b-a406-3e9eb0f3579d",
      "note": "",
      "comments": {},
      "type": "",
      "address": "",
      "url": [],
      "dataversion": "draft1",
      "baiduad": {},
      "principal": "",
      "USID": "",
      "created": 1463648652,
      "city": "昆明",
      "shareholder": [],
      "province": "云南",
      "phone": [],
      "location": "",
      "news": {}
    },
    "曲靖曙光泌尿专科医院": {
      "putian": {},
      "name": "曲靖曙光泌尿专科医院",
      "id": "be8d3bdb-4ff4-4461-a302-9135eb6451c6",
      "note": "",
      "comments": {},
      "type": "",
      "address": "",
      "url": [],
      "dataversion": "draft1",
      "baiduad": {},
      "principal": "",
      "USID": "",
      "created": 1463648652,
      "city": "曲靖",
      "shareholder": [],
      "province": "云南",
      "phone": [],
      "location": "",
      "news": {}
    },
    "昆明强生泌尿专科医院": {
      "putian": {},
      "name": "昆明强生泌尿专科医院",
      "id": "16da06a1-38a7-428a-bfc2-e82bcceca232",
      "note": "",
      "comments": {},
      "type": "",
      "address": "",
      "url": [],
      "dataversion": "draft1",
      "baiduad": {},
      "principal": "",
      "USID": "",
      "created": 1463648652,
      "city": "昆明",
      "shareholder": [],
      "province": "云南",
      "phone": [],
      "location": "",
      "news": {}
    },
    "玉溪民康医院": {
      "putian": {},
      "name": "玉溪民康医院",
      "id": "afa3581b-f92e-4178-b2c9-70b57ff54398",
      "note": "",
      "comments": {},
      "type": "",
      "address": "",
      "url": [],
      "dataversion": "draft1",
      "baiduad": {},
      "principal": "",
      "USID": "",
      "created": 1463648652,
      "city": "玉溪",
      "shareholder": [],
      "province": "云南",
      "phone": [],
      "location": "",
      "news": {}
    },
    "昆明男健医院": {
      "putian": {},
      "name": "昆明男健医院",
      "id": "b356e7eb-d89f-487c-8347-10f59574f559",
      "note": "",
      "comments": {},
      "type": "",
      "address": "",
      "url": [],
      "dataversion": "draft1",
      "baiduad": {},
      "principal": "",
      "USID": "",
      "created": 1463648652,
      "city": "昆明",
      "shareholder": [],
      "province": "云南",
      "phone": [],
      "location": "",
      "news": {}
    },
    "昆明妇产医院": {
      "putian": {},
      "name": "昆明妇产医院",
      "id": "80ebd58e-83ec-45c7-b687-80b00e923c78",
      "note": "",
      "comments": {},
      "type": "",
      "address": "",
      "url": [],
      "dataversion": "draft1",
      "baiduad": {},
      "principal": "",
      "USID": "",
      "created": 1463648652,
      "city": "昆明",
      "shareholder": [],
      "province": "云南",
      "phone": [],
      "location": "",
      "news": {}
    },
    "曲靖九州医院": {
      "putian": {},
      "name": "曲靖九州医院",
      "id": "2472901f-7a0c-42a7-ab3c-8d2461fa9340",
      "note": "",
      "comments": {},
      "type": "",
      "address": "",
      "url": [],
      "dataversion": "draft1",
      "baiduad": {},
      "principal": "",
      "USID": "",
      "created": 1463648652,
      "city": "曲靖",
      "shareholder": [],
      "province": "云南",
      "phone": [],
      "location": "",
      "news": {}
    },
    "云南玛莉亚医院": {
      "putian": {},
      "name": "云南玛莉亚医院",
      "id": "8d2c898e-ecb3-4e0c-ba32-f4d685d5136f",
      "note": "",
      "comments": {},
      "type": "",
      "address": "",
      "url": [],
      "dataversion": "draft1",
      "baiduad": {},
      "principal": "",
      "USID": "",
      "created": 1463648652,
      "city": "昆明",
      "shareholder": [],
      "province": "云南",
      "phone": [],
      "location": "",
      "news": {}
    },
    "云南骨科医院": {
      "putian": {},
      "name": "云南骨科医院",
      "id": "0460c082-c238-4646-af6d-78aed8c2c748",
      "note": "",
      "comments": {},
      "type": "",
      "address": "",
      "url": [],
      "dataversion": "draft1",
      "baiduad": {},
      "principal": "",
      "USID": "",
      "created": 1463648652,
      "city": "昆明",
      "shareholder": [],
      "province": "云南",
      "phone": [],
      "location": "",
      "news": {}
    },
    "云南九洲医院": {
      "putian": {},
      "name": "云南九洲医院",
      "id": "53ed3d73-66fe-4feb-97f7-2e93f892cb6d",
      "note": "",
      "comments": {},
      "type": "",
      "address": "",
      "url": [],
      "dataversion": "draft1",
      "baiduad": {},
      "principal": "",
      "USID": "",
      "created": 1463648652,
      "city": "昆明",
      "shareholder": [],
      "province": "云南",
      "phone": [],
      "location": "",
      "news": {}
    },
    "昆明中英安琪儿妇产医院": {
      "putian": {},
      "name": "昆明中英安琪儿妇产医院",
      "id": "9c02fb4e-9113-4a75-871c-e4dc664b478e",
      "note": "",
      "comments": {},
      "type": "",
      "address": "",
      "url": [],
      "dataversion": "draft1",
      "baiduad": {},
      "principal": "",
      "USID": "",
      "created": 1463648652,
      "city": "昆明",
      "shareholder": [],
      "province": "云南",
      "phone": [],
      "location": "",
      "news": {}
    },
    "云南协和医院": {
      "putian": {},
      "name": "云南协和医院",
      "id": "5c0fcc3a-e694-445b-ab06-fa48c661cfc1",
      "note": "",
      "comments": {},
      "type": "",
      "address": "",
      "url": [],
      "dataversion": "draft1",
      "baiduad": {},
      "principal": "",
      "USID": "",
      "created": 1463648652,
      "city": "昆明",
      "shareholder": [],
      "province": "云南",
      "phone": [],
      "location": "",
      "news": {}
    }
  },
  "info": {
    "license": "https://github.com/open-power-workgroup/Hospital/blob/master/open_data_usage_license.md",
    "version": "draft1",
    "date": "2016年05月19日"
  }
}